{
  "salas": [
    {
      "id": "sala-z",
      "nombre": "Sala Z",
      "instagram": "@salazaragoza",
      "keywords": [
        "sala z",
        "salaz"
      ],
      "lat": 41.6513,
      "lng": -0.8817,
      "tipo": "sala"
    },
    {
      "id": "sala-creedence",
      "nombre": "Sala Creedence",
      "instagram": "@creedencesound",
      "keywords": [
        "creedence"
      ],
      "lat": 41.653,
      "lng": -0.8854,
      "tipo": "sala"
    },
    {
      "id": "sala-lopez",
      "nombre": "Sala López",
      "instagram": "@salalopez",
      "keywords": [
        "sala lópez",
        "sala lopez",
        "salalopez"
      ],
      "lat": 41.6584,
      "lng": -0.8748,
      "tipo": "sala"
    },
    {
      "id": "ley-seca",
      "nombre": "La Ley Seca",
      "instagram": "@laleysecazgz",
      "keywords": [
        "ley seca",
        "leyseca"
      ],
      "lat": 41.6538,
      "lng": -0.8811,
      "tipo": "bar"
    },
    {
      "id": "lata-bombillas",
      "nombre": "La Lata de Bombillas",
      "instagram": "@lalatadebombillas",
      "keywords": [
        "lata de bombillas",
        "lata bombillas",
        "lalatadebombillas"
      ],
      "lat": 41.6433,
      "lng": -0.8663,
      "tipo": "sala"
    },
    {
      "id": "sala-lo-intento",
      "nombre": "Sala lo Intento",
      "instagram": "@salalointento",
      "keywords": [
        "lo intento",
        "lointento"
      ],
      "lat": 41.6472,
      "lng": -0.8812,
      "tipo": "sala"
    },
    {
      "id": "sala-oasis",
      "nombre": "Sala Oasis",
      "instagram": "@salaoasiszgz",
      "keywords": [
        "oasis",
        "salaoasis"
      ],
      "lat": 41.652,
      "lng": -0.883,
      "tipo": "sala"
    },
    {
      "id": "rock-blues",
      "nombre": "Rock & Blues Café",
      "instagram": "@rockandbluescafe",
      "keywords": [
        "rock & blues",
        "rock and blues",
        "rockandbluescafe",
        "rock blues"
      ],
      "lat": 41.6534,
      "lng": -0.8811,
      "tipo": "bar"
    },
    {
      "id": "pub-utopia",
      "nombre": "Pub Utopia",
      "instagram": "@pubutopia",
      "keywords": [
        "utopia",
        "pub utopia",
        "pubutopia"
      ],
      "lat": 41.6435,
      "lng": -0.8957,
      "tipo": "bar"
    },
    {
      "id": "campana-underground",
      "nombre": "La Campana Underground",
      "instagram": "@lacampanaunderground",
      "keywords": [
        "campana underground",
        "campana"
      ],
      "lat": 41.6564,
      "lng": -0.8812,
      "tipo": "sala"
    },
    {
      "id": "sala-arrebato",
      "nombre": "Sala Arrebato",
      "instagram": "@salaarrebato",
      "keywords": [
        "arrebato"
      ],
      "lat": 41.6501,
      "lng": -0.8821,
      "tipo": "sala"
    },
    {
      "id": "corazon-verde",
      "nombre": "El Corazón Verde",
      "instagram": "@elcorazonverdebar",
      "keywords": [
        "corazón verde",
        "corazon verde",
        "green heart",
        "elcorazonverde"
      ],
      "lat": 41.6317,
      "lng": -0.8913,
      "tipo": "bar"
    },
    {
      "id": "teatro-esquinas",
      "nombre": "Teatro de las Esquinas",
      "instagram": "@teatrodelasesquinas",
      "keywords": [
        "teatro de las esquinas",
        "teatrodelasesquinas",
        "esquinas"
      ],
      "lat": 41.6472,
      "lng": -0.9077,
      "tipo": "teatro"
    },
    {
      "id": "auditorio",
      "nombre": "Auditorio de Zaragoza",
      "instagram": "@auditoriozaragoza",
      "keywords": [
        "auditorio",
        "sala mozart",
        "sala multiusos",
        "sala galve",
        "auditoriozaragoza"
      ],
      "lat": 41.6378,
      "lng": -0.9004,
      "tipo": "auditorio"
    },
    {
      "id": "pabellon-principe",
      "nombre": "Pabellón Príncipe Felipe",
      "instagram": "@pabellonprincipefelipe",
      "keywords": [
        "príncipe felipe",
        "principe felipe",
        "pabellón príncipe"
      ],
      "lat": 41.6354,
      "lng": -0.9065,
      "tipo": "recinto"
    },
    {
      "id": "jardin-invierno",
      "nombre": "Jardín de Invierno",
      "instagram": "@jardindeinviernozgz",
      "keywords": [
        "jardín de invierno",
        "jardin de invierno",
        "labordeta",
        "parque labordeta"
      ],
      "lat": 41.6478,
      "lng": -0.9102,
      "tipo": "espacio"
    },
    {
      "id": "estacion-norte",
      "nombre": "Estación del Norte",
      "instagram": "@estaciondelnortezgz",
      "keywords": [
        "estación del norte",
        "estacion del norte",
        "estacion norte"
      ],
      "lat": 41.6561,
      "lng": -0.8734,
      "tipo": "espacio"
    },
    {
      "id": "ragtime",
      "nombre": "Ragtime",
      "instagram": "@ragtime_zgz",
      "keywords": [
        "ragtime"
      ],
      "lat": 41.6544,
      "lng": -0.8821,
      "tipo": "bar"
    }
  ]
}